City_ID,City,Date,Lat,Lng,Max Temp,Humidity,Cloudiness,Wind Speed,Country,Current Description
0,Mount Gambier,2020-10-30 01:16:21,-37.83,140.77,59.0,72,90,11.41,AU,overcast clouds
1,Castro,2020-10-30 01:15:25,-24.79,-50.01,60.08,96,100,7.0,BR,light rain
2,Kapaa,2020-10-30 01:15:30,22.08,-159.32,82.4,58,1,12.75,US,clear sky
3,Punta Arenas,2020-10-30 01:15:06,-53.15,-70.92,46.4,70,75,8.05,CL,broken clouds
4,Faanui,2020-10-30 01:15:57,-16.48,-151.75,80.29,78,0,10.04,PF,light rain
5,Victoria,2020-10-30 01:14:16,22.29,114.16,75.0,80,96,1.01,HK,overcast clouds
6,Jiwani,2020-10-30 01:16:37,25.05,61.74,73.2,25,0,14.18,PK,clear sky
7,Dukat,2020-10-30 01:16:00,62.55,155.55,13.19,94,100,1.63,RU,overcast clouds
8,Port Elizabeth,2020-10-30 01:15:55,-33.92,25.57,55.4,82,0,11.41,ZA,clear sky
9,Puerto Escondido,2020-10-30 01:16:13,15.85,-97.07,78.8,74,90,5.82,MX,moderate rain
10,Andenes,2020-10-30 01:16:38,69.31,16.12,37.0,64,100,17.22,NO,overcast clouds
11,Khatanga,2020-10-30 01:15:40,71.97,102.5,2.19,85,0,12.8,RU,clear sky
12,Sibu,2020-10-30 01:16:38,2.3,111.82,78.8,88,40,2.24,MY,scattered clouds
13,Butaritari,2020-10-30 01:15:00,3.07,172.79,82.04,75,79,12.84,KI,broken clouds
14,Laguna,2020-10-30 01:16:38,38.42,-121.42,77.0,37,1,2.28,US,clear sky
15,Valenza,2020-10-30 01:16:38,45.01,8.64,48.99,91,100,1.72,IT,overcast clouds
16,Dikson,2020-10-30 01:15:23,73.51,80.55,8.85,93,100,25.52,RU,overcast clouds
17,Neuquen,2020-10-30 01:15:31,-38.95,-68.06,64.4,45,0,12.1,AR,clear sky
18,Port Alfred,2020-10-30 01:15:00,-33.59,26.89,60.67,70,100,16.6,ZA,overcast clouds
19,Dunedin,2020-10-30 01:15:00,-45.87,170.5,57.99,84,100,5.99,NZ,overcast clouds
20,Codrington,2020-10-30 01:15:09,-38.27,141.97,59.14,76,0,11.18,AU,clear sky
21,Luis Correia,2020-10-30 01:16:39,-2.88,-41.67,80.33,69,46,17.96,BR,scattered clouds
22,Albany,2020-10-30 01:12:10,42.6,-73.97,42.01,89,100,9.75,US,light rain
23,Palmer,2020-10-30 01:16:07,42.16,-72.33,43.0,100,90,12.75,US,light rain
24,Ribeira Grande,2020-10-30 01:15:08,38.52,-28.7,67.71,87,100,9.24,PT,overcast clouds
25,Samarai,2020-10-30 01:16:39,-10.62,150.67,81.72,77,31,9.19,PG,light rain
26,Rikitea,2020-10-30 01:15:05,-23.12,-134.97,75.45,74,100,7.65,PF,overcast clouds
27,Umm Kaddadah,2020-10-30 01:16:40,13.6,26.69,81.55,22,0,15.59,SD,clear sky
28,Burnie,2020-10-30 01:15:34,-41.07,145.92,61.0,63,20,10.0,AU,few clouds
29,Port Moresby,2020-10-30 01:14:56,-9.44,147.18,86.0,66,40,11.41,PG,haze
30,Krasnoye-Na-Volge,2020-10-30 01:16:40,57.51,41.24,35.6,80,75,6.71,RU,broken clouds
31,Port Hardy,2020-10-30 01:16:12,50.7,-127.42,53.76,81,100,13.8,CA,overcast clouds
32,Port Hedland,2020-10-30 01:15:39,-20.32,118.57,91.4,36,0,11.41,AU,clear sky
33,East London,2020-10-30 01:15:44,-33.02,27.91,62.33,74,100,17.78,ZA,light rain
34,Bethel,2020-10-30 01:15:08,41.37,-73.41,44.6,93,90,10.29,US,mist
35,Hilo,2020-10-30 01:11:00,19.73,-155.09,80.6,78,90,6.93,US,moderate rain
36,Westport,2020-10-30 01:15:30,41.14,-73.36,46.4,93,90,19.46,US,light rain
37,Beckley,2020-10-30 01:16:41,37.78,-81.19,59.0,100,90,3.36,US,fog
38,Mataura,2020-10-30 01:15:23,-46.19,168.86,62.01,89,100,1.45,NZ,overcast clouds
39,Carnarvon,2020-10-30 01:11:05,-24.87,113.63,73.4,83,90,12.75,AU,overcast clouds
40,Ushuaia,2020-10-30 01:12:02,-54.8,-68.3,44.6,70,40,24.16,AR,scattered clouds
41,Conde,2020-10-30 01:16:41,-7.26,-34.91,77.0,83,40,6.93,BR,scattered clouds
42,Fukue,2020-10-30 01:16:19,32.69,128.84,66.2,63,75,11.41,JP,broken clouds
43,Skjervoy,2020-10-30 01:15:17,70.03,20.97,37.72,76,94,21.79,NO,overcast clouds
44,Henties Bay,2020-10-30 01:15:42,-22.12,14.28,55.0,90,8,1.01,NA,clear sky
45,Semporna,2020-10-30 01:16:41,4.48,118.61,80.6,88,20,2.24,MY,few clouds
46,Kamaishi,2020-10-30 01:14:16,39.27,141.88,46.4,81,75,5.82,JP,broken clouds
47,Bam,2020-10-30 01:16:41,29.11,58.36,55.87,36,0,5.68,IR,clear sky
48,Deputatskiy,2020-10-30 01:16:42,69.3,139.9,2.89,95,100,1.1,RU,overcast clouds
49,Portland,2020-10-30 01:15:21,45.52,-122.68,57.99,76,1,4.7,US,clear sky
50,Hobart,2020-10-30 01:15:03,-42.88,147.33,66.99,67,20,12.75,AU,few clouds
51,Kodinsk,2020-10-30 01:16:42,58.69,99.18,20.75,95,100,5.57,RU,light snow
52,Ixtapa,2020-10-30 01:16:42,20.7,-105.2,84.2,66,5,8.05,MX,clear sky
53,Yellowknife,2020-10-30 01:11:32,62.46,-114.35,17.01,94,61,4.61,CA,broken clouds
54,Grand Gaube,2020-10-30 01:16:05,-20.01,57.66,68.0,69,0,10.0,MU,clear sky
55,Talara,2020-10-30 01:16:42,-4.58,-81.27,64.35,90,100,15.97,PE,overcast clouds
56,Nanortalik,2020-10-30 01:15:57,60.14,-45.24,30.02,94,100,12.77,GL,overcast clouds
57,Makakilo City,2020-10-30 01:16:12,21.35,-158.09,84.2,58,90,11.41,US,overcast clouds
58,Hasaki,2020-10-30 01:15:52,35.73,140.83,59.0,58,75,8.05,JP,light rain
59,College,2020-10-30 01:15:50,64.86,-147.8,17.6,72,90,5.82,US,light snow
60,Meulaboh,2020-10-30 01:15:45,4.14,96.13,77.9,78,93,3.6,ID,overcast clouds
61,Toktogul,2020-10-30 01:16:43,41.87,72.94,39.18,59,0,2.42,KG,clear sky
62,The Valley,2020-10-30 01:16:43,18.22,-63.06,84.2,74,40,12.75,AI,scattered clouds
63,Gavle,2020-10-30 01:16:43,60.67,17.14,44.01,90,83,1.99,SE,broken clouds
64,Barrow,2020-10-30 01:15:03,71.29,-156.79,21.2,85,75,6.93,US,snow
65,Lata,2020-10-30 01:16:15,40.16,-8.33,60.01,89,0,3.13,PT,clear sky
66,Puerto Ayora,2020-10-30 01:15:01,-0.74,-90.35,69.01,92,100,5.01,EC,overcast clouds
67,Arraial Do Cabo,2020-10-30 01:15:00,-22.97,-42.03,75.11,94,100,2.37,BR,light rain
68,Tosya,2020-10-30 01:16:43,41.02,34.04,51.22,68,0,3.11,TR,clear sky
69,Provideniya,2020-10-30 01:15:11,64.38,-173.3,26.6,63,0,2.24,RU,clear sky
70,Mount Isa,2020-10-30 01:13:10,-20.73,139.5,93.2,6,0,6.93,AU,clear sky
71,Bluff,2020-10-30 01:15:15,-46.6,168.33,62.01,89,100,5.91,NZ,light rain
72,Richards Bay,2020-10-30 01:16:44,-28.78,32.04,72.55,72,100,8.57,ZA,overcast clouds
73,Busselton,2020-10-30 01:16:44,-33.65,115.33,78.01,30,0,8.46,AU,clear sky
74,Veraval,2020-10-30 01:15:21,20.9,70.37,77.22,63,0,8.72,IN,clear sky
75,Lagoa,2020-10-30 01:15:29,39.05,-27.98,67.46,89,100,9.84,PT,overcast clouds
76,Abha,2020-10-30 01:16:44,18.22,42.51,55.4,35,0,4.7,SA,clear sky
77,Huron,2020-10-30 01:16:44,41.15,-82.55,48.99,94,100,12.71,US,light rain
78,Hithadhoo,2020-10-30 01:15:06,-0.6,73.08,82.98,76,71,10.94,MV,broken clouds
79,Talnakh,2020-10-30 01:15:34,69.49,88.4,3.56,87,48,8.41,RU,scattered clouds
80,Manono,2020-10-30 01:16:44,-7.3,27.42,69.13,94,100,3.67,CD,overcast clouds
81,Hami,2020-10-30 01:15:59,42.8,93.45,42.51,57,13,12.8,CN,few clouds
82,Pangnirtung,2020-10-30 01:15:19,66.15,-65.71,6.75,84,73,4.0,CA,broken clouds
83,Chapais,2020-10-30 01:15:17,49.78,-74.85,13.19,97,0,5.01,CA,clear sky
84,Dakar,2020-10-30 01:16:45,14.69,-17.44,82.4,78,0,6.93,SN,clear sky
85,Cervo,2020-10-30 01:16:45,43.67,-7.41,54.0,90,0,5.39,ES,clear sky
86,Thompson,2020-10-30 01:15:12,55.74,-97.86,24.57,98,89,6.53,CA,overcast clouds
87,Teya,2020-10-30 01:15:20,60.38,92.63,9.7,92,100,3.47,RU,light snow
88,Coquimbo,2020-10-30 01:14:03,-29.95,-71.34,55.4,87,0,6.93,CL,clear sky
89,Torbay,2020-10-30 01:15:25,47.67,-52.73,41.0,84,100,4.0,CA,overcast clouds
90,Groningen,2020-10-30 01:16:45,53.25,6.75,55.99,93,75,16.11,NL,broken clouds
91,Kruisfontein,2020-10-30 01:15:32,-34.0,24.73,55.0,84,1,11.5,ZA,clear sky
92,Inuvik,2020-10-30 01:15:36,68.35,-133.72,5.81,95,79,3.29,CA,broken clouds
93,Te Anau,2020-10-30 01:15:53,-45.42,167.72,57.51,92,100,2.98,NZ,light rain
94,Avarua,2020-10-30 01:15:01,-21.21,-159.78,77.0,69,100,8.05,CK,overcast clouds
95,Port Lincoln,2020-10-30 01:16:46,-34.73,135.87,58.75,68,42,20.47,AU,scattered clouds
96,Harnosand,2020-10-30 01:16:46,62.63,17.94,37.4,93,0,5.82,SE,clear sky
97,San Jose,2020-10-30 01:14:48,37.34,-121.89,73.0,29,0,1.99,US,clear sky
98,Hermanus,2020-10-30 01:15:15,-34.42,19.23,46.0,87,46,3.51,ZA,scattered clouds
99,Nikolskoye,2020-10-30 01:15:07,59.7,30.79,50.0,93,90,2.51,RU,light intensity shower rain
100,Poum,2020-10-30 01:16:46,-20.23,164.02,77.54,70,100,12.84,NC,overcast clouds
101,Alofi,2020-10-30 01:16:01,-19.06,-169.92,77.0,61,75,18.34,NU,light intensity drizzle
102,Usinsk,2020-10-30 01:16:46,65.99,57.53,37.04,95,100,17.34,RU,overcast clouds
103,Bambous Virieux,2020-10-30 01:15:18,-20.34,57.76,69.01,67,4,8.99,MU,clear sky
104,Mayo,2020-10-30 01:15:43,38.89,-76.51,53.6,100,90,10.29,US,overcast clouds
105,Bredasdorp,2020-10-30 01:15:25,-34.53,20.04,51.8,62,12,5.82,ZA,few clouds
106,Palaikastron,2020-10-30 01:16:47,35.2,26.25,64.99,73,0,5.01,GR,clear sky
107,Jamestown,2020-10-30 01:10:13,42.1,-79.24,44.01,93,90,5.82,US,overcast clouds
108,Baffa,2020-10-30 01:16:47,34.44,73.22,54.46,35,0,6.08,PK,clear sky
109,Tessalit,2020-10-30 01:15:39,20.2,1.01,74.41,19,0,6.33,ML,clear sky
110,San Luis,2020-10-30 01:13:47,-33.3,-66.34,57.88,35,90,19.48,AR,overcast clouds
111,Shimoda,2020-10-30 01:16:47,34.67,138.95,62.6,55,40,17.22,JP,scattered clouds
112,Barra Do Garcas,2020-10-30 01:16:47,-15.89,-52.26,74.12,85,100,4.16,BR,light rain
113,Sorong,2020-10-30 01:15:51,-0.88,131.25,83.34,73,59,10.51,ID,broken clouds
114,Goksun,2020-10-30 01:16:47,38.02,36.5,55.4,66,0,3.36,TR,clear sky
115,Nalut,2020-10-30 01:16:48,30.33,10.85,54.48,68,0,11.03,LY,clear sky
116,Atuona,2020-10-30 01:13:46,-9.8,-139.03,78.12,73,96,15.43,PF,overcast clouds
117,Saint Anthony,2020-10-30 01:16:24,45.02,-93.22,32.0,63,1,2.77,US,clear sky
118,Bako,2020-10-30 01:16:48,5.78,36.57,62.24,89,91,2.8,ET,light rain
119,Tocopilla,2020-10-30 01:13:21,-22.09,-70.2,60.48,54,0,2.39,CL,clear sky
120,Bonito,2020-10-30 01:16:48,-21.12,-56.48,69.24,87,0,5.39,BR,clear sky
121,Patrasaer,2020-10-30 01:16:48,23.22,87.52,71.38,70,11,7.23,IN,few clouds
122,Chuy,2020-10-30 01:16:01,-33.7,-53.46,50.29,87,11,7.81,UY,few clouds
123,Turukhansk,2020-10-30 01:16:11,65.82,87.98,4.32,94,89,5.57,RU,overcast clouds
124,State College,2020-10-30 01:13:50,40.79,-77.86,45.0,100,90,5.82,US,light intensity drizzle
125,Vardo,2020-10-30 01:15:04,70.37,31.11,35.47,84,51,20.15,NO,broken clouds
126,Bathsheba,2020-10-30 01:15:26,13.22,-59.52,77.0,88,40,20.8,BB,shower rain
127,Rohri,2020-10-30 01:16:49,27.69,68.9,64.4,82,0,5.12,PK,mist
128,Souillac,2020-10-30 01:16:23,-20.52,57.52,68.0,69,26,10.0,MU,light rain
129,Pevek,2020-10-30 01:15:24,69.7,170.31,19.74,95,100,10.8,RU,overcast clouds
130,Saint George,2020-10-30 01:13:24,37.1,-113.58,69.8,14,1,4.7,US,clear sky
131,Yerofey Pavlovich,2020-10-30 01:16:49,53.97,121.97,23.4,92,100,1.97,RU,overcast clouds
132,North Adams,2020-10-30 01:16:49,42.7,-73.11,42.8,87,90,6.96,US,overcast clouds
133,Cape Town,2020-10-30 01:14:28,-33.93,18.42,52.0,75,20,2.24,ZA,few clouds
134,Lorengau,2020-10-30 01:16:49,-2.02,147.27,84.49,73,99,9.19,PG,moderate rain
135,Roald,2020-10-30 01:16:50,62.58,6.13,44.6,81,0,8.05,NO,clear sky
136,Kavieng,2020-10-30 01:15:21,-2.57,150.8,80.85,78,100,9.19,PG,moderate rain
137,Vanavara,2020-10-30 01:16:50,60.34,102.28,17.87,97,100,4.68,RU,overcast clouds
138,San Martin,2020-10-30 01:16:50,-33.08,-68.47,62.6,36,0,2.24,AR,clear sky
139,Vila,2020-10-30 01:16:50,42.03,-8.16,57.0,100,75,6.93,PT,broken clouds
140,Parana,2020-10-30 01:16:50,-31.73,-60.52,55.0,73,0,1.99,AR,clear sky
141,Alikovo,2020-10-30 01:16:50,55.74,46.75,24.8,100,0,4.47,RU,clear sky
142,Narsaq,2020-10-30 01:15:14,60.92,-46.05,30.2,80,75,3.36,GL,broken clouds
143,Pisco,2020-10-30 01:15:18,-13.7,-76.22,63.0,82,0,20.8,PE,clear sky
144,Pedregal,2020-10-30 01:16:50,8.37,-82.43,80.01,87,63,3.98,PA,light rain
145,Qaanaaq,2020-10-30 01:15:00,77.48,-69.36,4.93,72,9,6.17,GL,clear sky
146,Katsuura,2020-10-30 01:15:25,35.13,140.3,61.0,47,75,12.75,JP,broken clouds
147,Rawson,2020-10-30 01:13:44,-43.3,-65.1,52.5,60,0,12.44,AR,clear sky
148,Ostrovnoy,2020-10-30 01:16:51,68.05,39.51,38.52,92,100,13.38,RU,light rain
149,Leh,2020-10-30 01:16:51,34.17,77.58,25.34,74,23,2.55,IN,few clouds
150,Salalah,2020-10-30 01:12:28,17.02,54.09,74.37,60,0,1.34,OM,clear sky
151,Lavrentiya,2020-10-30 01:16:16,65.58,-171.0,25.5,88,0,4.74,RU,clear sky
152,Prince Rupert,2020-10-30 01:11:05,54.32,-130.32,42.15,87,100,6.98,CA,moderate rain
153,Bereznik,2020-10-30 01:16:52,62.86,42.71,46.08,94,100,7.2,RU,light rain
154,Camacha,2020-10-30 01:15:31,33.08,-16.33,68.0,77,20,8.05,PT,few clouds
155,Warrnambool,2020-10-30 01:11:55,-38.38,142.48,64.0,79,0,11.3,AU,clear sky
156,Manzanillo,2020-10-30 01:16:52,20.34,-77.12,77.7,82,68,3.09,CU,heavy intensity rain
157,Cockburn Town,2020-10-30 01:16:52,21.46,-71.14,82.49,79,11,17.98,TC,few clouds
158,Georgetown,2020-10-30 01:15:29,5.41,100.34,80.6,88,20,4.7,MY,few clouds
159,Sabang,2020-10-30 01:16:52,5.89,95.32,82.31,73,84,10.85,ID,broken clouds
160,Vaini,2020-10-30 01:15:13,-21.2,-175.2,77.0,65,20,12.75,TO,few clouds
161,Thinadhoo,2020-10-30 01:16:52,0.53,72.93,82.83,75,12,11.56,MV,few clouds
162,Mahanje,2020-10-30 01:16:52,-9.93,35.33,66.11,80,87,5.53,TZ,light rain
163,Collipulli,2020-10-30 01:16:52,-37.95,-72.43,52.59,78,0,5.41,CL,clear sky
164,Areia Branca,2020-10-30 01:16:53,-4.96,-37.14,77.61,71,0,19.33,BR,clear sky
165,Maracas,2020-10-30 01:16:53,-13.44,-40.43,65.43,97,100,8.57,BR,overcast clouds
166,Upernavik,2020-10-30 01:15:56,72.79,-56.15,22.69,97,100,4.18,GL,light snow
167,Villazon,2020-10-30 01:16:53,-22.09,-65.59,46.71,63,43,11.68,BO,scattered clouds
168,Makat,2020-10-30 01:16:53,47.65,53.35,42.06,67,18,16.58,KZ,few clouds
169,Leningradskiy,2020-10-30 01:15:47,69.38,178.42,17.78,88,60,12.82,RU,broken clouds
170,Lianran,2020-10-30 01:16:53,24.92,102.48,61.0,100,90,4.47,CN,mist
171,Celestun,2020-10-30 01:16:53,20.87,-90.4,79.63,83,96,18.21,MX,light rain
172,Chauk,2020-10-30 01:16:53,20.88,94.82,78.37,80,100,8.21,MM,light rain
173,Paamiut,2020-10-30 01:16:22,61.99,-49.67,27.37,88,0,9.64,GL,clear sky
174,Severnoye,2020-10-30 01:16:54,56.35,78.36,34.41,97,100,8.86,RU,light rain
175,Tabas,2020-10-30 01:16:54,33.6,56.92,55.4,13,0,2.24,IR,clear sky
176,Sandnessjoen,2020-10-30 01:16:54,66.02,12.63,41.0,80,0,4.7,NO,clear sky
177,Carballo,2020-10-30 01:16:54,43.21,-8.69,48.99,100,75,6.93,ES,broken clouds
178,Kahului,2020-10-30 01:15:02,20.89,-156.47,86.0,62,40,8.05,US,scattered clouds
179,Saint-Francois,2020-10-30 01:15:51,46.42,3.91,55.4,87,90,2.24,FR,overcast clouds
180,Great Bend,2020-10-30 01:16:54,38.36,-98.76,44.01,56,1,6.93,US,clear sky
181,Norman Wells,2020-10-30 01:11:03,65.28,-126.83,9.52,92,35,1.45,CA,scattered clouds
182,Suriapet,2020-10-30 01:16:54,17.15,79.62,71.42,78,26,6.64,IN,scattered clouds
183,Tecoanapa,2020-10-30 01:16:55,16.52,-98.75,80.55,80,100,4.45,MX,light rain
184,Freeport,2020-10-30 01:14:28,40.66,-73.58,48.2,87,90,24.16,US,overcast clouds
185,Vanimo,2020-10-30 01:15:57,-2.67,141.3,77.02,89,100,5.59,PG,light rain
186,Gat,2020-10-30 01:16:55,31.61,34.76,70.0,100,99,3.0,IL,overcast clouds
187,Cidreira,2020-10-30 01:11:07,-30.18,-50.21,61.41,63,100,10.42,BR,overcast clouds
188,Peniche,2020-10-30 01:16:55,39.36,-9.38,54.0,81,0,2.57,PT,clear sky
189,Fortuna,2020-10-30 01:15:18,40.6,-124.16,59.0,81,1,9.17,US,clear sky
190,Wagar,2020-10-30 01:16:55,16.15,36.2,75.97,60,0,7.36,SD,clear sky
191,Muros,2020-10-30 01:15:58,42.78,-9.06,52.0,91,1,1.99,ES,clear sky
192,Kaitangata,2020-10-30 01:16:56,-46.28,169.85,57.99,85,100,5.99,NZ,overcast clouds
193,Landeck,2020-10-30 01:16:56,47.13,10.56,45.0,93,5,5.82,AT,light rain
194,Bara,2020-10-30 01:16:56,10.37,10.73,74.43,41,0,1.14,NG,clear sky
195,Miramar,2020-10-30 01:16:56,25.99,-80.23,82.4,88,1,10.04,US,clear sky
196,Margate,2020-10-30 01:15:10,51.38,1.39,59.0,81,100,4.0,GB,overcast clouds
197,Talcahuano,2020-10-30 01:16:56,-36.72,-73.12,59.0,77,0,9.17,CL,clear sky
198,Vao,2020-10-30 01:16:56,-22.67,167.48,73.9,82,98,17.83,NC,overcast clouds
199,Vila Velha,2020-10-30 01:11:55,-20.33,-40.29,80.6,78,75,10.29,BR,moderate rain
200,Binghamton,2020-10-30 01:16:57,42.1,-75.92,44.01,93,90,10.29,US,moderate rain
201,Hirado,2020-10-30 01:16:57,33.36,129.55,69.01,52,75,13.87,JP,broken clouds
202,Palmas,2020-10-30 01:13:49,-10.21,-48.36,82.4,65,20,4.7,BR,light rain
203,Dingle,2020-10-30 01:16:57,11.0,122.67,82.11,82,100,8.59,PH,very heavy rain
204,Casper,2020-10-30 01:13:40,42.87,-106.31,53.6,37,1,9.17,US,clear sky
205,Nouna,2020-10-30 01:16:57,12.73,-3.87,75.72,22,13,1.16,BF,few clouds
206,Belmonte,2020-10-30 01:15:40,-15.86,-38.88,75.2,88,90,6.93,BR,shower rain
207,Saskylakh,2020-10-30 01:15:54,71.92,114.08,0.03,84,56,6.17,RU,broken clouds
208,Esfarayen,2020-10-30 01:16:57,37.08,57.51,37.4,40,0,0.6,IR,clear sky
209,Kerman,2020-10-30 01:16:57,30.28,57.08,37.4,29,0,6.93,IR,clear sky
210,Itarema,2020-10-30 01:15:27,-2.92,-39.92,78.08,80,70,14.74,BR,broken clouds
211,Hualmay,2020-10-30 01:13:42,-11.1,-77.61,63.09,84,99,9.62,PE,overcast clouds
212,Tual,2020-10-30 01:16:58,-5.67,132.75,83.05,73,0,9.46,ID,clear sky
213,Hulst,2020-10-30 01:16:58,51.28,4.05,57.0,92,100,3.0,NL,overcast clouds
214,Saint-Philippe,2020-10-30 01:15:14,-21.36,55.77,69.8,56,75,13.87,RE,broken clouds
215,Floriano,2020-10-30 01:16:58,-6.77,-43.02,86.05,49,100,3.47,BR,overcast clouds
216,Kotelnikovo,2020-10-30 01:16:58,47.63,43.15,52.36,80,100,14.16,RU,light rain
217,Fort Nelson,2020-10-30 01:15:00,58.81,-122.7,27.48,96,100,3.09,CA,overcast clouds
218,Santa Maria,2020-10-30 01:16:58,-29.68,-53.81,64.4,55,40,5.82,BR,scattered clouds
219,Zhezkazgan,2020-10-30 01:16:12,47.8,67.71,32.31,81,0,3.94,KZ,clear sky
220,Hofn,2020-10-30 01:15:44,64.25,-15.21,45.25,85,100,10.25,IS,light rain
221,North Platte,2020-10-30 01:16:58,41.12,-100.77,55.4,50,1,3.36,US,clear sky
222,Alyangula,2020-10-30 01:16:58,-13.85,136.42,87.8,55,100,5.82,AU,overcast clouds
223,Tasiilaq,2020-10-30 01:15:17,65.61,-37.64,37.4,59,100,21.92,GL,light rain
224,Florianopolis,2020-10-30 01:15:19,-27.61,-48.5,66.2,68,40,24.16,BR,moderate rain
225,North Bend,2020-10-30 01:16:59,43.41,-124.22,62.6,67,1,9.17,US,clear sky
226,Vostok,2020-10-30 01:16:59,46.49,135.88,31.93,100,100,2.89,RU,overcast clouds
227,Kitimat,2020-10-30 01:16:15,54.05,-128.65,38.77,82,100,3.11,CA,overcast clouds
228,Mar Del Plata,2020-10-30 01:15:26,-38.0,-57.56,50.0,70,0,2.24,AR,clear sky
229,Srednekolymsk,2020-10-30 01:15:20,67.45,153.68,5.68,94,100,0.27,RU,overcast clouds
230,Asyut,2020-10-30 01:16:59,27.18,31.18,69.8,73,0,11.41,EG,clear sky
231,Jinchang,2020-10-30 01:16:59,38.5,102.17,42.44,60,79,12.35,CN,broken clouds
232,Port-Gentil,2020-10-30 01:16:59,-0.72,8.78,77.74,80,100,1.07,GA,overcast clouds
233,Nizhneivkino,2020-10-30 01:16:59,58.19,49.52,30.13,95,48,6.58,RU,scattered clouds
234,Sitka,2020-10-30 01:15:58,57.05,-135.33,44.6,75,40,9.17,US,scattered clouds
235,Boa Vista,2020-10-30 01:17:00,2.82,-60.67,87.8,62,20,5.82,BR,moderate rain
236,Marsa Matruh,2020-10-30 01:17:00,31.35,27.25,62.6,72,0,8.5,EG,clear sky
237,Boralday,2020-10-30 01:17:00,43.36,76.86,24.8,79,20,2.24,KZ,mist
238,Grindavik,2020-10-30 01:15:53,63.84,-22.43,41.0,93,90,12.75,IS,moderate rain
239,Tuktoyaktuk,2020-10-30 01:15:13,69.45,-133.04,5.45,94,11,5.77,CA,few clouds
240,Aasiaat,2020-10-30 01:17:00,68.71,-52.87,18.18,95,100,6.26,GL,overcast clouds
241,Sur,2020-10-30 01:17:00,22.57,59.53,71.02,65,0,5.46,OM,clear sky
242,Chokurdakh,2020-10-30 01:10:47,70.63,147.92,-3.37,93,99,2.37,RU,overcast clouds
243,Caravelas,2020-10-30 01:15:13,-17.71,-39.25,76.44,84,100,10.04,BR,overcast clouds
244,Tiksi,2020-10-30 01:15:09,71.69,128.87,8.53,95,99,5.75,RU,overcast clouds
245,Olinda,2020-10-30 01:16:19,-8.01,-34.86,80.6,74,40,8.05,BR,scattered clouds
246,Anton Lizardo,2020-10-30 01:17:01,19.05,-95.98,75.99,69,40,26.4,MX,scattered clouds
247,Ayia Marina,2020-10-30 01:17:01,37.75,23.53,63.0,100,0,4.38,GR,clear sky
248,Tuatapere,2020-10-30 01:16:16,-46.13,167.68,61.0,89,100,1.99,NZ,overcast clouds
249,Clyde River,2020-10-30 01:15:36,70.47,-68.59,18.48,93,100,12.19,CA,overcast clouds
250,Olafsvik,2020-10-30 01:16:35,64.89,-23.71,42.19,86,100,15.32,IS,moderate rain
251,Ponta Do Sol,2020-10-30 01:15:30,32.67,-17.1,68.0,68,20,10.29,PT,few clouds
252,Beni Mazar,2020-10-30 01:17:01,28.5,30.8,70.29,67,100,16.84,EG,overcast clouds
253,Kavaratti,2020-10-30 01:16:11,10.57,72.64,82.71,69,0,7.02,IN,clear sky
254,Batagay,2020-10-30 01:17:01,67.63,134.63,1.92,92,100,1.48,RU,overcast clouds
255,Namibe,2020-10-30 01:16:11,-15.2,12.15,69.58,73,0,4.92,AO,clear sky
256,Martapura,2020-10-30 01:17:02,-3.42,114.85,84.11,72,98,5.41,ID,overcast clouds
257,Kodiak,2020-10-30 01:15:28,57.79,-152.41,41.0,56,1,4.7,US,clear sky
258,Miraflores,2020-10-30 01:17:02,19.22,-98.81,71.01,40,40,9.17,MX,scattered clouds
259,Sena Madureira,2020-10-30 01:17:02,-9.07,-68.66,75.51,93,46,4.18,BR,light rain
260,New Norfolk,2020-10-30 01:15:10,-42.78,147.06,66.99,54,76,1.01,AU,broken clouds
261,Nemuro,2020-10-30 01:15:32,43.32,145.57,48.2,61,40,13.87,JP,scattered clouds
262,Iqaluit,2020-10-30 01:12:45,63.75,-68.51,4.6,90,0,8.7,CA,clear sky
263,Saryg-Sep,2020-10-30 01:17:02,51.5,95.6,17.64,90,0,2.44,RU,clear sky
264,Naze,2020-10-30 01:15:56,28.37,129.48,75.2,56,75,9.17,JP,broken clouds
265,George Enescu,2020-10-30 01:17:02,48.03,26.48,50.0,76,0,6.93,RO,clear sky
266,Itaituba,2020-10-30 01:17:03,-4.28,-55.98,83.88,59,0,0.49,BR,clear sky
267,Lokosovo,2020-10-30 01:17:03,61.13,74.82,33.57,97,100,7.65,RU,overcast clouds
268,Darnah,2020-10-30 01:16:23,32.77,22.64,69.13,70,0,19.22,LY,clear sky
269,Curillo,2020-10-30 01:17:03,1.03,-75.92,77.54,82,7,1.34,CO,light rain
270,Awbari,2020-10-30 01:17:03,26.59,12.78,60.82,45,0,10.42,LY,clear sky
271,Atar,2020-10-30 01:17:03,20.52,-13.05,81.23,21,99,7.92,MR,overcast clouds
272,Bullhead City,2020-10-30 01:14:58,35.15,-114.57,84.2,9,5,9.17,US,clear sky
273,Saint-Joseph,2020-10-30 01:17:03,-21.37,55.62,69.8,56,75,13.87,RE,broken clouds
274,Tiznit,2020-10-30 01:17:03,29.58,-9.5,72.99,22,74,12.39,MA,broken clouds
275,Camalu,2020-10-30 01:17:03,30.85,-116.07,63.0,43,0,1.01,MX,clear sky
276,Ilulissat,2020-10-30 01:15:57,69.22,-51.1,19.4,73,85,3.36,GL,overcast clouds
277,San Patricio,2020-10-30 01:15:36,28.02,-97.52,66.2,42,20,16.11,US,smoke
278,Winnemucca,2020-10-30 01:17:04,40.97,-117.74,62.6,12,1,2.95,US,clear sky
279,Santa Fe,2020-10-30 01:17:04,-31.63,-60.7,55.0,73,0,1.99,AR,clear sky
280,Callaguip,2020-10-30 01:17:04,18.07,120.49,77.0,100,75,3.36,PH,shower rain
281,Jalu,2020-10-30 01:16:42,29.03,21.55,62.15,77,0,8.75,LY,clear sky
282,Saint-Paul,2020-10-30 01:17:04,-21.01,55.27,69.8,56,0,20.8,RE,clear sky
283,Kautokeino,2020-10-30 01:17:04,69.01,23.04,20.75,92,0,6.51,NO,clear sky
284,Lala,2020-10-30 01:17:04,7.97,123.75,85.14,71,100,1.81,PH,overcast clouds
285,Kilindoni,2020-10-30 01:17:04,-7.91,39.67,79.25,78,14,12.5,TZ,few clouds
286,Saint-Georges,2020-10-30 01:17:04,12.06,-61.75,80.6,83,75,14.03,GD,broken clouds
287,Bahia Blanca,2020-10-30 01:17:05,-38.72,-62.27,53.06,41,0,9.24,AR,clear sky
288,Lagos,2020-10-30 01:13:07,6.58,3.75,76.55,92,100,3.33,NG,overcast clouds
289,Beisfjord,2020-10-30 01:17:05,68.38,17.6,28.4,86,93,12.75,NO,overcast clouds
290,Saint-Leu,2020-10-30 01:17:05,-21.15,55.28,69.8,56,75,13.87,RE,broken clouds
291,Airai,2020-10-30 01:15:13,-8.93,125.41,75.43,53,0,2.08,TL,clear sky
292,Datong,2020-10-30 01:17:05,40.09,113.29,45.52,50,98,2.59,CN,overcast clouds
293,Pashiya,2020-10-30 01:17:05,58.43,58.26,28.63,97,100,5.77,RU,overcast clouds
294,Tomatlan,2020-10-30 01:17:05,19.93,-105.25,77.36,81,0,1.7,MX,clear sky
295,Agadez,2020-10-30 01:17:05,19.75,10.25,69.12,23,0,12.39,NE,clear sky
296,Nara,2020-10-30 01:17:05,34.69,135.8,61.0,58,75,4.7,JP,broken clouds
297,Kokstad,2020-10-30 01:17:06,-30.55,29.42,57.92,90,100,3.91,ZA,light rain
298,Ellensburg,2020-10-30 01:17:06,47.0,-120.55,64.4,45,1,5.82,US,clear sky
299,Tilichiki,2020-10-30 01:15:41,60.47,166.1,28.9,92,0,1.9,RU,clear sky
300,Perigueux,2020-10-30 01:17:06,45.18,0.72,51.01,100,20,4.7,FR,mist
301,Byron Bay,2020-10-30 01:17:06,-28.65,153.62,84.0,73,0,11.41,AU,clear sky
302,Oranjemund,2020-10-30 01:17:06,-28.55,16.43,56.03,74,3,19.71,NA,clear sky
303,Ahipara,2020-10-30 01:15:47,-35.17,173.17,68.34,65,100,11.3,NZ,overcast clouds
304,Hay River,2020-10-30 01:15:02,60.82,-115.8,18.23,95,100,4.61,CA,overcast clouds
305,Kashmor,2020-10-30 01:17:07,28.43,69.58,68.88,25,0,8.72,PK,clear sky
306,Ancud,2020-10-30 01:15:55,-41.87,-73.82,51.8,71,100,9.17,CL,overcast clouds
307,Constitucion,2020-10-30 01:15:19,-35.33,-72.42,55.63,75,0,8.57,CL,clear sky
308,Paraiso,2020-10-30 01:17:07,9.84,-83.87,70.0,100,75,2.24,CR,broken clouds
309,Los Llanos De Aridane,2020-10-30 01:15:57,28.66,-17.92,69.8,68,75,9.17,ES,broken clouds
310,Antofagasta,2020-10-30 01:17:07,-23.65,-70.4,59.0,77,20,11.41,CL,few clouds
311,Rio De Janeiro,2020-10-30 01:12:18,-22.9,-43.21,78.8,83,90,5.82,BR,overcast clouds
312,Senno,2020-10-30 01:17:07,59.53,33.92,44.94,91,100,6.33,RU,overcast clouds
313,Budogoshch,2020-10-30 01:17:07,59.28,32.47,47.16,90,100,6.29,RU,overcast clouds
314,Socorro,2020-10-30 01:17:07,31.65,-106.3,64.4,29,5,8.05,US,clear sky
315,Pangai,2020-10-30 01:17:07,-19.8,-174.35,78.8,57,20,17.22,TO,few clouds
316,Manbij,2020-10-30 01:17:08,36.53,37.95,53.6,76,0,4.43,SY,clear sky
317,Lac Du Bonnet,2020-10-30 01:17:08,50.25,-96.06,26.01,80,100,1.99,CA,overcast clouds
318,Yumen,2020-10-30 01:17:08,40.28,97.2,35.06,75,97,8.59,CN,overcast clouds
319,Comodoro Rivadavia,2020-10-30 01:11:53,-45.87,-67.5,53.6,66,0,1.12,AR,clear sky
320,Taixing,2020-10-30 01:17:08,32.17,120.01,66.0,69,0,3.0,CN,clear sky
321,Haimen,2020-10-30 01:17:08,23.19,116.61,73.4,73,40,4.47,CN,scattered clouds
322,Mahebourg,2020-10-30 01:15:44,-20.41,57.7,69.01,67,7,8.99,MU,light rain
323,Praia,2020-10-30 01:16:57,14.92,-23.51,78.8,78,20,18.34,CV,few clouds
324,Yulara,2020-10-30 01:17:08,-25.24,130.99,68.0,28,0,12.75,AU,clear sky
325,Longyearbyen,2020-10-30 01:15:06,78.22,15.64,19.4,62,20,20.8,SJ,few clouds
326,Sao Filipe,2020-10-30 01:15:32,14.9,-24.5,80.28,71,4,7.63,CV,clear sky
327,Kaeo,2020-10-30 01:17:08,-35.1,173.78,70.0,70,100,8.99,NZ,overcast clouds
328,Kasimov,2020-10-30 01:17:09,54.94,41.4,33.55,90,36,6.76,RU,scattered clouds
329,Sao Joao De Pirabas,2020-10-30 01:17:09,-0.77,-47.18,80.44,81,29,9.37,BR,scattered clouds
330,Qazigund,2020-10-30 01:17:09,33.63,75.15,41.45,53,0,0.65,IN,clear sky
331,Yarmouth,2020-10-30 01:16:17,41.71,-70.23,51.01,93,90,12.75,US,mist
332,Ontario,2020-10-30 01:17:09,34.06,-117.65,84.2,18,20,9.17,US,few clouds
333,Krasnovishersk,2020-10-30 01:17:09,60.41,57.08,33.98,94,100,6.8,RU,overcast clouds
334,Santiago De Cao,2020-10-30 01:17:09,-7.96,-79.24,61.63,90,100,13.35,PE,overcast clouds
335,Lebu,2020-10-30 01:15:07,-37.62,-73.65,52.52,82,52,18.41,CL,broken clouds
336,Tura,2020-10-30 01:17:09,25.52,90.22,72.1,85,0,4.12,IN,clear sky
337,Lasa,2020-10-30 01:17:09,46.62,10.7,44.01,93,5,5.82,IT,clear sky
338,Staryy Nadym,2020-10-30 01:17:10,65.61,72.68,11.95,96,100,6.29,RU,overcast clouds
339,Inhambane,2020-10-30 01:15:39,-23.86,35.38,72.59,90,7,9.13,MZ,clear sky
340,Cognac,2020-10-30 01:17:10,45.5,-0.25,50.0,100,75,3.36,FR,fog
341,Acolla,2020-10-30 01:17:10,-11.73,-75.55,53.22,63,100,3.2,PE,overcast clouds
342,Ha Giang,2020-10-30 01:17:10,22.83,104.98,70.34,80,93,1.25,VN,overcast clouds
343,Quatre Cocos,2020-10-30 01:17:10,-20.21,57.76,68.0,69,4,10.0,MU,clear sky
344,Aklavik,2020-10-30 01:15:16,68.22,-135.01,10.31,92,64,6.42,CA,broken clouds
345,Sambhal,2020-10-30 01:17:10,28.58,78.55,64.56,52,0,4.12,IN,clear sky
346,Svetlogorsk,2020-10-30 01:17:10,52.63,29.73,45.32,95,47,5.01,BY,scattered clouds
347,Nuuk,2020-10-30 01:15:16,64.18,-51.72,23.0,73,48,8.05,GL,scattered clouds
348,Luderitz,2020-10-30 01:15:25,-26.65,15.16,56.75,74,0,28.43,NA,clear sky
349,Mehamn,2020-10-30 01:17:10,71.04,27.85,34.81,85,100,20.51,NO,light rain
350,Tshela,2020-10-30 01:17:10,-4.98,12.93,73.71,93,100,1.74,CD,overcast clouds
351,Carndonagh,2020-10-30 01:15:29,55.25,-7.27,51.1,83,100,18.57,IE,overcast clouds
352,Port Augusta,2020-10-30 01:15:28,-32.5,137.77,62.6,77,75,26.4,AU,broken clouds
353,Santa Isabel Do Rio Negro,2020-10-30 01:17:11,-0.41,-65.02,79.21,80,100,1.39,BR,overcast clouds
354,Flinders,2020-10-30 01:17:11,-34.58,150.86,71.6,46,40,8.05,AU,scattered clouds
355,Shingu,2020-10-30 01:16:24,33.73,135.98,62.6,51,40,10.29,JP,scattered clouds
356,Corning,2020-10-30 01:15:22,42.14,-77.05,46.4,93,90,6.93,US,light rain
357,Pochutla,2020-10-30 01:16:10,15.74,-96.47,75.2,78,90,3.91,MX,overcast clouds
358,Pierre,2020-10-30 01:15:46,44.37,-100.35,41.0,80,90,5.82,US,overcast clouds
359,Durango,2020-10-30 01:15:53,24.83,-104.83,53.33,43,0,7.23,MX,clear sky
360,Praia Da Vitoria,2020-10-30 01:17:11,38.73,-27.07,68.0,88,40,11.48,PT,scattered clouds
361,Mill Valley,2020-10-30 01:15:23,37.91,-122.55,66.99,65,0,7.54,US,clear sky
362,Sao Joao Da Barra,2020-10-30 01:15:51,-21.64,-41.05,76.03,88,100,20.62,BR,moderate rain
363,Bilibino,2020-10-30 01:16:11,68.05,166.44,4.01,82,70,1.52,RU,broken clouds
364,Mayumba,2020-10-30 01:17:12,-3.43,10.66,76.71,90,80,3.42,GA,broken clouds
365,Bengkulu,2020-10-30 01:15:19,-3.8,102.27,75.65,89,100,2.77,ID,moderate rain
366,Udala,2020-10-30 01:17:12,43.08,-2.51,54.0,93,0,1.12,ES,clear sky
367,Krasnoborsk,2020-10-30 01:17:12,61.56,45.93,44.49,91,100,7.43,RU,overcast clouds
368,Marystown,2020-10-30 01:17:12,47.17,-55.15,42.1,74,100,11.63,CA,overcast clouds
369,Lakeside,2020-10-30 01:13:59,30.13,-81.77,78.01,88,90,10.29,US,overcast clouds
370,Leninogorsk,2020-10-30 01:17:12,54.6,52.46,30.47,94,11,5.73,RU,few clouds
371,Tateyama,2020-10-30 01:17:12,34.98,139.87,64.99,47,75,12.75,JP,broken clouds
372,Ampanihy,2020-10-30 01:17:12,-24.7,44.75,71.49,61,0,10.16,MG,clear sky
373,Esperance,2020-10-30 01:15:05,-33.87,121.9,60.8,59,100,13.87,AU,overcast clouds
374,San Cristobal,2020-10-30 01:16:16,7.77,-72.22,80.6,83,40,2.24,VE,light rain
375,Mitsamiouli,2020-10-30 01:17:13,-11.38,43.28,78.31,81,1,11.43,KM,clear sky
376,Khvoynaya,2020-10-30 01:17:13,58.9,34.53,44.02,93,100,6.17,RU,overcast clouds
377,Almaznyy,2020-10-30 01:17:13,48.04,40.05,55.4,93,40,11.18,RU,light intensity shower rain
378,Evensk,2020-10-30 01:17:13,61.95,159.23,23.09,84,90,5.06,RU,overcast clouds
379,Sao Jose Da Coroa Grande,2020-10-30 01:15:55,-8.9,-35.15,76.5,85,86,8.21,BR,overcast clouds
380,Hoi An,2020-10-30 01:17:13,15.88,108.33,78.8,94,75,2.24,VN,light rain
381,Caxito,2020-10-30 01:17:13,-8.58,13.66,75.2,94,75,4.7,AO,broken clouds
382,Bayangol,2020-10-30 01:17:13,50.7,103.47,27.64,95,100,2.37,RU,overcast clouds
383,Port Macquarie,2020-10-30 01:14:56,-31.43,152.92,75.99,59,62,1.99,AU,broken clouds
384,Gatesville,2020-10-30 01:17:14,31.44,-97.74,51.01,76,1,8.34,US,clear sky
385,Xinqing,2020-10-30 01:17:14,48.23,129.5,33.91,84,84,3.78,CN,broken clouds
386,Hare Bay,2020-10-30 01:17:14,48.85,-54.01,32.0,96,5,8.99,CA,clear sky
387,Carbonia,2020-10-30 01:17:14,39.17,8.52,60.8,87,0,13.87,IT,clear sky
388,Buraydah,2020-10-30 01:17:14,26.33,43.98,60.8,36,0,6.11,SA,clear sky
389,Viet Tri,2020-10-30 01:17:14,21.3,105.43,68.0,94,75,2.24,VN,broken clouds
390,Kasongo-Lunda,2020-10-30 01:17:14,-6.47,16.82,71.49,93,100,3.71,CD,light rain
391,Hambantota,2020-10-30 01:15:34,6.12,81.12,78.78,79,100,4.0,LK,overcast clouds
392,Rongcheng,2020-10-30 01:17:14,30.63,117.85,66.99,83,0,5.61,CN,clear sky
393,Tongling,2020-10-30 01:17:14,30.95,117.78,62.28,72,0,9.22,CN,clear sky
394,Mnogovershinnyy,2020-10-30 01:17:15,53.94,139.92,33.39,91,75,11.23,RU,broken clouds
395,Killybegs,2020-10-30 01:17:15,54.63,-8.45,48.99,93,100,5.01,IE,overcast clouds
396,Callaway,2020-10-30 01:17:15,30.15,-85.57,70.0,68,1,24.16,US,clear sky
397,Wilmington,2020-10-30 01:17:07,34.23,-77.94,78.8,78,90,17.22,US,overcast clouds
398,Yibin,2020-10-30 01:17:15,28.77,104.62,63.84,81,94,0.45,CN,overcast clouds
399,Kaduqli,2020-10-30 01:17:15,11.02,29.72,74.84,62,0,2.15,SD,clear sky
400,Madimba,2020-10-30 01:17:15,-10.4,40.33,75.2,88,40,3.56,TZ,scattered clouds
401,Worland,2020-10-30 01:17:15,44.02,-107.96,39.2,80,1,0.78,US,clear sky
402,Colesberg,2020-10-30 01:17:16,-30.72,25.1,55.58,79,86,9.73,ZA,overcast clouds
403,Addis Abeba,2020-10-30 01:12:51,9.03,38.75,49.86,48,0,0.94,ET,clear sky
404,Riyadh,2020-10-30 01:12:23,24.69,46.72,60.8,36,0,0.18,SA,clear sky
405,Ouadda,2020-10-30 01:17:16,8.08,22.4,66.99,94,89,2.93,CF,overcast clouds
406,Bestobe,2020-10-30 01:17:16,52.5,73.1,32.13,94,99,11.77,KZ,overcast clouds
407,Moose Factory,2020-10-30 01:16:05,51.26,-80.61,21.81,82,0,3.89,CA,clear sky
408,Ramnagar,2020-10-30 01:17:16,29.4,79.12,62.89,38,0,5.55,IN,clear sky
409,Codo,2020-10-30 01:17:16,-4.46,-43.89,81.05,69,100,6.31,BR,overcast clouds
410,Mineiros,2020-10-30 01:15:32,-17.57,-52.55,69.53,90,100,3.6,BR,moderate rain
411,Klaksvik,2020-10-30 01:16:09,62.23,-6.59,46.4,93,100,26.4,FO,light rain
412,Imeni Poliny Osipenko,2020-10-30 01:17:16,52.42,136.49,35.24,84,100,5.19,RU,overcast clouds
413,Pemangkat,2020-10-30 01:17:17,1.17,108.97,81.5,80,27,7.56,ID,moderate rain
414,Roma,2020-10-30 01:14:52,43.21,-75.46,42.8,81,90,8.84,US,light rain
415,Erenhot,2020-10-30 01:15:37,43.65,111.98,42.87,51,45,11.12,CN,scattered clouds
416,Ucluelet,2020-10-30 01:11:19,48.93,-125.55,54.0,94,100,5.23,CA,light rain
417,Playas,2020-10-30 01:17:17,-2.63,-80.38,70.81,87,36,15.14,EC,scattered clouds
418,Biltine,2020-10-30 01:17:17,14.53,20.92,83.95,19,89,16.17,TD,overcast clouds
419,Saldanha,2020-10-30 01:15:11,-33.01,17.94,44.6,81,0,8.05,ZA,clear sky
420,Kysyl-Syr,2020-10-30 01:17:17,63.9,122.76,-5.46,90,1,1.34,RU,clear sky
421,Takoradi,2020-10-30 01:13:47,4.88,-1.76,77.63,86,0,5.17,GH,clear sky
422,Bata,2020-10-30 01:13:00,1.86,9.77,75.49,91,100,4.12,GQ,light rain
423,Kichera,2020-10-30 01:17:18,55.94,110.1,27.77,85,79,1.48,RU,broken clouds
424,Shu,2020-10-30 01:17:18,43.6,73.76,33.67,82,0,3.2,KZ,clear sky
425,Male,2020-10-30 01:17:18,4.17,73.51,82.18,75,40,8.9,MV,scattered clouds
426,Hun,2020-10-30 01:17:18,29.13,15.95,56.88,75,81,3.24,LY,broken clouds
427,Beloha,2020-10-30 01:15:50,-25.17,45.05,65.98,78,0,12.3,MG,clear sky
428,Petauke,2020-10-30 01:17:18,-14.24,31.33,69.93,51,0,5.53,ZM,clear sky
429,Ayaviri,2020-10-30 01:17:18,-14.89,-70.59,51.6,43,31,5.17,PE,scattered clouds
430,Arman,2020-10-30 01:15:33,59.7,150.17,31.35,92,100,4.5,RU,overcast clouds
431,Severo-Kurilsk,2020-10-30 01:16:01,50.68,156.12,44.17,78,27,11.5,RU,scattered clouds
432,Boyolangu,2020-10-30 01:17:18,-8.12,111.89,84.9,66,49,1.74,ID,light rain
433,Geraldton,2020-10-30 01:15:18,-28.77,114.6,86.0,37,0,6.93,AU,clear sky
434,Boden,2020-10-30 01:17:18,65.83,21.69,30.2,100,0,3.36,SE,clear sky
435,Rocha,2020-10-30 01:17:18,-34.48,-54.33,52.68,74,99,11.65,UY,overcast clouds
436,Novyy Urgal,2020-10-30 01:17:19,51.07,132.56,33.57,88,100,2.57,RU,overcast clouds
437,Punta Gorda,2020-10-30 01:17:19,26.93,-82.05,82.4,83,1,5.82,US,clear sky
438,Tabou,2020-10-30 01:17:19,4.42,-7.35,77.05,91,100,7.49,CI,light rain
439,Gold Coast,2020-10-30 01:13:49,-28.0,153.43,80.01,69,0,10.29,AU,clear sky
440,Mildura,2020-10-30 01:13:57,-34.2,142.15,57.2,100,90,11.41,AU,light rain
441,Warrenton,2020-10-30 01:17:19,-28.11,24.85,68.85,53,97,4.0,ZA,overcast clouds
442,Fairbanks,2020-10-30 01:15:54,64.84,-147.72,18.0,85,90,4.7,US,light snow
443,Fraga,2020-10-30 01:17:19,41.52,0.35,48.99,93,0,4.7,ES,clear sky
444,Gizo,2020-10-30 01:15:36,-8.1,156.84,84.38,69,100,7.43,SB,light rain
445,Antalaha,2020-10-30 01:17:19,-14.9,50.28,71.29,87,79,9.69,MG,light rain
446,Ornskoldsvik,2020-10-30 01:17:19,63.29,18.72,37.4,100,0,4.7,SE,clear sky
447,Seydi,2020-10-30 01:17:19,39.48,62.91,37.9,68,0,8.93,TM,clear sky
448,Kawalu,2020-10-30 01:17:20,-7.38,108.21,78.75,80,72,2.66,ID,broken clouds
449,Harper,2020-10-30 01:17:20,4.38,-7.72,77.14,90,99,8.34,LR,light rain
450,Santa Cruz,2020-10-30 01:13:07,-17.8,-63.17,77.0,50,75,13.87,BO,broken clouds
451,Verkhnyaya Inta,2020-10-30 01:17:20,65.98,60.31,37.2,93,100,16.49,RU,overcast clouds
452,San Ramon,2020-10-30 01:12:53,37.78,-121.98,72.0,43,1,10.29,US,clear sky
453,Mocuba,2020-10-30 01:17:20,-16.84,36.99,68.97,81,0,2.55,MZ,clear sky
454,Sao Geraldo Do Araguaia,2020-10-30 01:17:20,-6.4,-48.55,80.78,72,0,1.21,BR,clear sky
455,Berlevag,2020-10-30 01:17:20,70.86,29.09,36.34,81,100,24.11,NO,overcast clouds
456,Chumikan,2020-10-30 01:17:20,54.72,135.31,34.2,86,100,13.78,RU,overcast clouds
457,Cocobeach,2020-10-30 01:17:20,1.0,9.58,75.2,94,40,5.82,GA,scattered clouds
458,Baykit,2020-10-30 01:15:56,61.67,96.37,9.95,92,96,2.46,RU,overcast clouds
459,Buala,2020-10-30 01:17:21,-8.14,159.59,80.26,82,100,10.45,SB,light rain
460,Kaniama,2020-10-30 01:17:21,-7.57,24.18,66.36,97,100,6.22,CD,heavy intensity rain
461,Tak Bai,2020-10-30 01:17:21,6.26,102.05,79.61,84,96,4.76,TH,overcast clouds
462,Kiama,2020-10-30 01:17:21,-34.68,150.87,71.6,46,40,8.05,AU,scattered clouds
463,Kashi,2020-10-30 01:16:04,39.45,75.98,37.4,27,0,6.71,CN,clear sky
464,Storforshei,2020-10-30 01:17:21,66.4,14.52,36.0,90,78,4.83,NO,broken clouds
465,Cherskiy,2020-10-30 01:15:38,68.75,161.3,7.5,93,100,3.85,RU,overcast clouds
466,Bethanien,2020-10-30 01:17:21,-26.5,17.16,51.91,76,0,5.39,NA,clear sky
467,Mana,2020-10-30 01:17:21,5.66,-53.78,81.81,82,100,13.38,GF,overcast clouds
468,Huarmey,2020-10-30 01:16:04,-10.07,-78.15,63.95,82,100,9.22,PE,overcast clouds
469,Labuhan,2020-10-30 01:17:22,-6.88,112.21,85.6,68,71,9.44,ID,light rain
470,Sile,2020-10-30 01:17:22,41.18,29.61,62.01,76,76,2.1,TR,broken clouds
471,Mweka,2020-10-30 01:16:18,-4.85,21.57,67.35,100,24,1.16,CD,few clouds
472,Mahibadhoo,2020-10-30 01:16:06,3.78,72.97,82.31,74,99,9.62,MV,light rain
473,Kainantu,2020-10-30 01:17:22,-6.29,145.87,74.05,67,97,1.19,PG,light rain
474,Haines Junction,2020-10-30 01:16:21,60.75,-137.51,24.12,94,100,1.83,CA,light snow
475,Lahaina,2020-10-30 01:13:07,20.88,-156.68,86.0,69,75,6.93,US,broken clouds
476,Umm Lajj,2020-10-30 01:17:22,25.02,37.27,80.42,27,0,8.59,SA,clear sky
477,Mercedes,2020-10-30 01:15:54,-34.65,-59.43,52.0,83,4,6.46,AR,clear sky
478,Yuli,2020-10-30 01:17:22,9.7,10.27,76.35,39,46,2.59,NG,scattered clouds
479,Terney,2020-10-30 01:17:22,45.05,136.61,48.09,59,0,6.93,RU,clear sky
480,Tucuman,2020-10-30 01:17:23,-26.82,-65.22,68.0,56,0,2.84,AR,clear sky
481,Truro,2020-10-30 01:17:23,50.27,-5.05,57.2,93,99,23.04,GB,overcast clouds
482,Winston-Salem,2020-10-30 01:15:17,36.1,-80.24,75.99,73,1,10.29,US,clear sky
483,Esmeralda,2020-10-30 01:13:46,21.85,-78.12,76.39,91,0,5.57,CU,clear sky
484,Juegang,2020-10-30 01:17:23,32.32,121.19,64.99,1,0,1.99,CN,clear sky
485,Lahij,2020-10-30 01:17:23,13.17,44.58,73.22,62,0,3.27,YE,clear sky
486,Tonantins,2020-10-30 01:17:23,-2.87,-67.8,78.6,84,8,1.43,BR,clear sky
487,Qaqortoq,2020-10-30 01:16:00,60.72,-46.03,30.2,80,86,3.36,GL,overcast clouds
488,Kalispell,2020-10-30 01:17:23,48.2,-114.31,45.0,81,90,1.1,US,overcast clouds
489,Saint-Pierre,2020-10-30 01:16:14,-21.34,55.48,69.8,56,75,13.87,RE,broken clouds
490,Viransehir,2020-10-30 01:17:23,37.24,39.76,65.28,25,3,4.65,TR,clear sky
491,Monrovia,2020-10-30 01:17:24,6.3,-10.8,77.0,94,75,7.18,LR,broken clouds
492,Hamilton,2020-10-30 01:12:36,39.18,-84.53,46.4,87,90,14.99,US,mist
493,Meadow Lake,2020-10-30 01:17:24,34.8,-106.54,53.6,46,20,4.7,US,few clouds
494,Broome,2020-10-30 01:17:24,42.25,-75.83,43.0,93,90,10.29,US,moderate rain
495,Belaya Gora,2020-10-30 01:17:24,68.53,146.42,6.94,95,100,7.29,RU,light snow
496,Eydhafushi,2020-10-30 01:17:24,5.1,73.07,82.17,75,95,8.12,MV,light rain
497,Villa Bruzual,2020-10-30 01:17:24,9.33,-69.12,76.95,88,65,3.76,VE,broken clouds
498,Christchurch,2020-10-30 01:14:27,-43.53,172.63,64.0,77,88,10.29,NZ,overcast clouds
499,Juneau,2020-10-30 01:17:24,58.3,-134.42,42.8,87,75,1.54,US,light rain
500,Mokhsogollokh,2020-10-30 01:17:24,61.47,128.92,-1.98,91,40,2.08,RU,scattered clouds
501,Banda Aceh,2020-10-30 01:16:12,5.56,95.32,82.2,68,94,7.14,ID,overcast clouds
502,Boblingen,2020-10-30 01:17:25,48.68,9.02,53.01,87,75,6.93,DE,broken clouds
503,Nome,2020-10-30 01:10:14,64.5,-165.41,28.0,68,1,4.09,US,light snow
504,Ambon,2020-10-30 01:17:25,-3.7,128.18,83.75,71,100,7.25,ID,overcast clouds
505,Tomino,2020-10-30 01:17:25,41.99,-8.76,57.0,100,75,6.93,ES,broken clouds
506,Mimongo,2020-10-30 01:17:25,-1.62,11.61,69.1,95,92,1.45,GA,overcast clouds
507,Tchibanga,2020-10-30 01:17:25,-2.85,11.03,71.55,99,90,3.0,GA,light rain
508,Korcula,2020-10-30 01:17:25,42.96,17.14,46.4,93,20,3.36,HR,mist
509,Avera,2020-10-30 01:15:37,33.19,-82.53,77.0,100,90,14.99,US,overcast clouds
510,Lixourion,2020-10-30 01:15:22,38.2,20.43,65.73,68,0,15.79,GR,clear sky
511,Polunochnoye,2020-10-30 01:17:25,60.87,60.42,33.85,94,28,4.99,RU,scattered clouds
512,Chipinge,2020-10-30 01:17:25,-20.19,32.62,58.96,60,0,3.76,ZW,clear sky
513,Sistranda,2020-10-30 01:15:54,63.73,8.83,41.0,93,20,9.17,NO,mist
514,Omboue,2020-10-30 01:17:26,-1.57,9.26,75.29,92,95,0.89,GA,light rain
515,Buta,2020-10-30 01:17:26,2.79,24.73,69.82,98,100,1.05,CD,overcast clouds
516,Faya,2020-10-30 01:16:21,18.39,42.45,55.4,35,0,4.7,SA,clear sky
517,Namatanai,2020-10-30 01:10:58,-3.67,152.43,81.79,76,98,9.48,PG,light rain
518,Gorgan,2020-10-30 01:17:26,36.84,54.43,51.8,93,0,1.81,IR,clear sky
519,Tonj,2020-10-30 01:15:46,7.27,28.68,71.87,92,100,4.9,SS,overcast clouds
520,Zhigansk,2020-10-30 01:15:20,66.77,123.37,-8.79,91,98,5.21,RU,overcast clouds
521,Half Moon Bay,2020-10-30 01:16:07,37.46,-122.43,69.8,32,5,5.82,US,clear sky
522,Yatou,2020-10-30 01:17:26,37.15,122.38,59.04,49,0,7.65,CN,clear sky
523,Dunmore Town,2020-10-30 01:17:27,25.5,-76.65,81.63,81,46,11.59,BS,light rain
524,Mirik,2020-10-30 01:17:27,26.89,88.18,56.66,55,0,5.82,IN,clear sky
525,Touros,2020-10-30 01:16:05,-5.2,-35.46,77.0,83,40,5.82,BR,scattered clouds
526,Bafata,2020-10-30 01:17:27,12.17,-14.75,74.97,45,0,1.41,GW,clear sky
527,Soyo,2020-10-30 01:17:27,-6.13,12.37,77.22,85,77,8.28,AO,broken clouds
528,Zyryanka,2020-10-30 01:17:27,65.75,150.85,6.64,94,97,3.56,RU,overcast clouds
529,Tucuma,2020-10-30 01:17:27,-0.18,-50.05,79.84,83,10,8.34,BR,clear sky
530,Chanthaburi,2020-10-30 01:17:27,12.83,102.17,82.99,65,90,2.48,TH,light rain
531,Mareeba,2020-10-30 01:17:27,-17.0,145.43,89.01,62,0,9.17,AU,clear sky
532,Whitehorse,2020-10-30 01:14:12,60.72,-135.05,24.01,92,95,5.99,CA,overcast clouds
533,Quang Ngai,2020-10-30 01:12:35,15.12,108.8,78.17,87,83,3.24,VN,light rain
534,Rakiv Lis,2020-10-30 01:17:28,51.62,24.92,49.62,88,100,9.17,UA,light rain
535,Cabo San Lucas,2020-10-30 01:13:28,22.89,-109.91,78.8,54,5,12.75,MX,clear sky
536,Tadotsu,2020-10-30 01:17:28,34.27,133.75,61.0,54,75,1.12,JP,broken clouds
537,Baruun-Urt,2020-10-30 01:16:14,46.68,113.28,39.45,58,100,13.65,MN,overcast clouds
538,Tongren,2020-10-30 01:17:28,27.72,109.19,59.72,75,100,2.04,CN,overcast clouds
539,Changji,2020-10-30 01:17:28,44.02,87.32,39.2,88,0,2.24,CN,clear sky
540,Kattivakkam,2020-10-30 01:17:28,13.22,80.32,77.0,94,75,3.36,IN,mist
541,Sorland,2020-10-30 01:15:23,67.67,12.69,39.34,72,98,14.65,NO,overcast clouds
542,Benin,2020-10-30 01:17:28,9.5,2.25,73.71,50,41,2.75,BJ,scattered clouds
543,Natal,2020-10-30 01:17:29,-5.79,-35.21,78.8,78,40,9.17,BR,scattered clouds
544,Rapid Valley,2020-10-30 01:17:29,44.06,-103.15,50.0,61,1,10.29,US,clear sky
545,Shache,2020-10-30 01:15:58,38.42,77.24,33.57,68,99,2.37,CN,overcast clouds
546,Lompoc,2020-10-30 01:11:56,34.64,-120.46,66.2,72,1,11.41,US,clear sky
547,Wajima,2020-10-30 01:17:29,37.4,136.9,51.8,66,75,4.7,JP,broken clouds
548,Wanning,2020-10-30 01:17:01,18.8,110.4,77.43,89,100,14.52,CN,moderate rain
549,Ahrensburg,2020-10-30 01:17:29,53.68,10.25,48.99,100,75,10.29,DE,light rain
550,Bafoulabe,2020-10-30 01:17:29,13.81,-10.83,78.21,20,0,3.56,ML,clear sky
551,Owando,2020-10-30 01:17:29,-0.48,15.9,69.84,98,100,0.38,CG,overcast clouds
552,Mogadishu,2020-10-30 01:17:29,2.04,45.34,78.76,80,1,6.53,SO,clear sky
553,Eureka,2020-10-30 01:17:30,40.8,-124.16,59.0,73,0,1.14,US,clear sky
554,Bonavista,2020-10-30 01:17:30,48.65,-53.11,39.0,87,67,13.0,CA,light rain
555,Abonnema,2020-10-30 01:17:30,4.71,6.79,75.2,94,40,3.49,NG,scattered clouds
556,Karachi,2020-10-30 01:17:30,24.91,67.08,66.2,88,0,4.7,PK,smoke
557,Guerrero Negro,2020-10-30 01:13:44,27.98,-114.06,71.15,35,0,11.7,MX,clear sky
558,Ambulu,2020-10-30 01:17:30,-8.35,113.61,83.75,68,32,1.88,ID,scattered clouds
559,Fremont,2020-10-30 01:12:53,37.55,-121.99,72.0,43,1,10.29,US,clear sky
560,Miyako,2020-10-30 01:16:37,39.64,141.95,52.39,48,38,3.62,JP,scattered clouds
561,Esik,2020-10-30 01:17:30,43.36,77.45,24.8,79,20,2.24,KZ,mist
562,Aron,2020-10-30 01:17:30,24.38,77.42,65.79,38,0,4.16,IN,clear sky
563,Yar-Sale,2020-10-30 01:17:30,66.83,70.83,16.56,97,100,8.88,RU,overcast clouds
564,San Jeronimo,2020-10-30 01:17:30,-11.95,-75.28,56.23,59,100,3.78,PE,overcast clouds
565,Senneterre,2020-10-30 01:17:31,48.38,-77.23,18.41,94,0,6.22,CA,clear sky
566,Erzin,2020-10-30 01:17:31,36.96,36.2,68.0,80,0,2.17,TR,clear sky
567,Lakatoro,2020-10-30 01:17:31,-16.1,167.42,84.2,74,75,9.17,VU,broken clouds
568,Stokmarknes,2020-10-30 01:17:31,68.56,14.91,35.01,69,51,5.01,NO,broken clouds
569,Saint-Augustin,2020-10-30 01:16:24,51.23,-58.65,29.32,88,71,13.69,CA,broken clouds
570,Pangkalanbuun,2020-10-30 01:15:35,-2.68,111.62,84.33,69,46,3.56,ID,scattered clouds
571,Asifabad,2020-10-30 01:17:31,19.37,79.28,70.39,70,34,3.67,IN,scattered clouds
572,Sinnamary,2020-10-30 01:17:31,5.38,-52.95,81.99,82,100,13.22,GF,overcast clouds
573,Vilyuysk,2020-10-30 01:17:31,63.76,121.62,-6.7,91,1,2.13,RU,clear sky
574,West Fargo,2020-10-30 01:17:31,46.88,-96.9,33.8,98,90,8.05,US,overcast clouds
575,Gairo,2020-10-30 01:17:31,39.85,9.5,62.6,63,75,4.7,IT,broken clouds
576,Moron,2020-10-30 01:17:32,-34.65,-58.62,57.99,71,40,3.36,AR,scattered clouds
577,Rokiskis,2020-10-30 01:17:32,55.97,25.58,45.46,97,98,3.24,LT,overcast clouds
578,Kaspiysk,2020-10-30 01:17:32,42.88,47.64,60.8,87,90,8.95,RU,overcast clouds
579,Beringovskiy,2020-10-30 01:17:32,63.05,179.32,25.68,83,0,4.56,RU,clear sky
580,Sechura,2020-10-30 01:17:32,-5.56,-80.82,66.07,79,100,13.58,PE,overcast clouds
581,Alice Springs,2020-10-30 01:17:32,-23.7,133.88,71.6,21,0,10.29,AU,clear sky
582,Sept-Iles,2020-10-30 01:17:02,50.2,-66.38,27.0,64,0,5.01,CA,clear sky
583,Sambava,2020-10-30 01:15:24,-14.27,50.17,73.54,83,5,14.72,MG,light rain
584,Pacific Grove,2020-10-30 01:12:50,36.62,-121.92,60.01,88,0,5.44,US,clear sky
585,Broken Hill,2020-10-30 01:16:23,-31.95,141.43,60.8,63,40,20.8,AU,scattered clouds
586,Dimitrovgrad,2020-10-30 01:14:59,54.21,49.62,35.6,80,100,8.95,RU,overcast clouds
587,Papara,2020-10-30 01:17:32,-3.98,-38.73,81.0,74,0,10.29,BR,clear sky
588,Lajoskomarom,2020-10-30 01:17:33,46.84,18.34,48.0,75,100,3.0,HU,overcast clouds
589,Kurumkan,2020-10-30 01:17:33,54.3,110.3,31.84,90,100,2.39,RU,overcast clouds
590,Cortez,2020-10-30 01:17:33,37.35,-108.59,55.4,37,1,4.7,US,clear sky
591,Stilfontein,2020-10-30 01:17:33,-26.84,26.77,64.35,55,3,5.32,ZA,clear sky
592,Manokwari,2020-10-30 01:17:33,-0.87,134.08,84.49,67,100,3.62,ID,overcast clouds
593,Guanay,2020-10-30 01:17:33,-15.5,-67.88,72.79,85,100,1.19,BO,light rain
594,Vestmannaeyjar,2020-10-30 01:15:34,63.44,-20.27,45.79,77,100,18.1,IS,light rain
595,Derzhavinsk,2020-10-30 01:15:55,51.1,66.32,32.97,91,0,7.92,KZ,clear sky
596,Kwinana,2020-10-30 01:17:33,-32.25,115.77,78.01,29,93,16.11,AU,overcast clouds
597,Liuzhou,2020-10-30 01:17:33,24.31,109.39,64.53,75,85,6.42,CN,overcast clouds
598,Sawakin,2020-10-30 01:17:34,19.11,37.33,83.03,68,40,6.33,SD,scattered clouds
599,Goundam,2020-10-30 01:15:10,16.41,-3.67,83.89,14,97,8.41,ML,overcast clouds
600,Komsomolskiy,2020-10-30 01:16:04,40.43,71.72,35.6,55,0,6.93,UZ,clear sky
601,Brae,2020-10-30 01:16:04,60.4,-1.35,50.0,93,100,28.86,GB,light rain
602,Liseleje,2020-10-30 01:17:34,56.01,11.95,45.0,100,100,12.95,DK,overcast clouds
603,Pontiac,2020-10-30 01:16:02,42.64,-83.29,42.01,80,90,14.99,US,overcast clouds
604,Nelson Bay,2020-10-30 01:17:34,-32.72,152.15,70.0,60,75,10.29,AU,broken clouds
605,Sangar,2020-10-30 01:17:34,63.92,127.47,-8.09,87,0,0.69,RU,clear sky
606,Oksfjord,2020-10-30 01:17:35,70.24,22.35,33.8,74,100,19.46,NO,light snow
607,Luruaco,2020-10-30 01:17:35,10.61,-75.14,82.4,88,75,4.7,CO,light intensity drizzle
608,Jambi,2020-10-30 01:14:55,-1.6,103.62,76.96,94,94,3.0,ID,overcast clouds
609,Nioro,2020-10-30 01:16:22,13.35,-15.75,75.67,67,0,2.86,GM,clear sky
610,Muroto,2020-10-30 01:17:35,33.28,134.15,66.2,42,75,12.75,JP,broken clouds
611,Honiara,2020-10-30 01:17:35,-9.43,159.95,86.0,74,75,5.82,SB,broken clouds
612,Dubbo,2020-10-30 01:17:08,-32.25,148.62,75.2,41,100,14.99,AU,overcast clouds
613,Homer,2020-10-30 01:17:35,59.64,-151.55,36.0,59,90,4.7,US,overcast clouds
614,Okhotsk,2020-10-30 01:15:54,59.38,143.3,28.71,95,100,10.27,RU,overcast clouds
615,Prescott Valley,2020-10-30 01:15:13,34.59,-112.33,66.2,17,1,10.29,US,clear sky
616,Mahabad,2020-10-30 01:17:36,36.76,45.72,51.84,44,0,3.87,IR,clear sky
617,Mamburao,2020-10-30 01:17:36,13.25,120.67,83.97,69,40,4.68,PH,scattered clouds
618,Bonthe,2020-10-30 01:15:52,7.53,-12.51,78.71,85,24,5.28,SL,few clouds
619,Darlowo,2020-10-30 01:17:36,54.42,16.41,46.99,91,32,15.77,PL,light rain
620,Coruripe,2020-10-30 01:17:36,-10.13,-36.18,76.5,85,83,13.82,BR,broken clouds
621,Nhulunbuy,2020-10-30 01:17:36,-12.23,136.77,95.0,11,0,9.17,AU,clear sky
622,Asau,2020-10-30 01:15:55,46.43,26.4,46.99,93,100,4.38,RO,overcast clouds
623,San Isidro,2020-10-30 01:15:51,-12.12,-77.05,62.6,82,40,14.99,PE,scattered clouds
624,Nachingwea,2020-10-30 01:17:36,-10.38,38.77,71.73,84,83,4.14,TZ,broken clouds
625,Gotsu,2020-10-30 01:17:37,35.0,132.22,55.4,76,40,5.82,JP,scattered clouds
626,Aksarka,2020-10-30 01:16:16,66.56,67.8,29.26,98,100,8.66,RU,overcast clouds
627,Shintomi,2020-10-30 01:17:37,32.08,131.47,66.2,63,75,9.17,JP,broken clouds
628,Rosa Zarate,2020-10-30 01:17:37,0.33,-79.47,74.5,83,100,5.1,EC,overcast clouds
629,Yanam,2020-10-30 01:17:37,16.73,82.22,72.95,75,84,2.62,IN,broken clouds
630,Naron,2020-10-30 01:17:37,43.52,-8.15,54.0,100,75,6.93,ES,broken clouds
631,Mountain Home,2020-10-30 01:17:37,43.13,-115.69,64.4,25,1,5.82,US,clear sky
632,Coburg,2020-10-30 01:17:37,50.27,10.97,50.0,90,100,1.99,DE,light rain
633,Vega De Alatorre,2020-10-30 01:17:37,20.03,-96.63,69.8,66,100,16.87,MX,overcast clouds
634,Ransang,2020-10-30 01:17:37,8.96,117.58,84.16,72,5,8.52,PH,clear sky
635,Ayr,2020-10-30 01:17:38,55.46,-4.63,57.2,93,40,19.46,GB,scattered clouds
636,Villa Del Rosario,2020-10-30 01:16:00,7.83,-72.47,80.6,83,40,2.24,CO,moderate rain
637,Ca Mau,2020-10-30 01:17:38,9.18,105.15,82.58,77,0,2.75,VN,clear sky
638,Bariri,2020-10-30 01:17:38,-22.07,-48.74,70.0,82,100,5.01,BR,light rain
639,Mecca,2020-10-30 01:17:38,21.43,39.83,72.88,59,0,1.61,SA,clear sky
640,Boshnyakovo,2020-10-30 01:17:38,49.63,142.17,41.43,67,0,5.68,RU,clear sky
641,Padang,2020-10-30 01:15:00,-0.95,100.35,83.41,62,12,2.93,ID,few clouds
642,Garden City,2020-10-30 01:17:38,42.33,-83.33,46.4,75,90,18.34,US,overcast clouds
643,Makokou,2020-10-30 01:17:38,0.57,12.86,67.05,93,98,1.88,GA,overcast clouds
644,Newport,2020-10-30 01:14:17,51.59,-3.0,59.0,97,100,3.0,GB,overcast clouds
645,Yantal,2020-10-30 01:17:39,56.85,105.25,22.6,93,45,8.28,RU,scattered clouds
646,Wanxian,2020-10-30 01:17:39,30.8,108.39,62.87,76,100,2.71,CN,overcast clouds
647,Puerto Gaitan,2020-10-30 01:17:11,4.31,-72.08,82.15,69,7,6.24,CO,clear sky
648,Camabatela,2020-10-30 01:17:39,-8.19,15.38,64.31,100,100,4.27,AO,light rain
649,Cartaya,2020-10-30 01:17:39,37.28,-7.15,62.01,58,0,1.99,ES,clear sky
650,Karrapur,2020-10-30 01:17:39,23.95,78.85,64.67,47,0,3.83,IN,clear sky
651,Koungheul,2020-10-30 01:17:39,13.98,-14.8,80.2,28,100,5.44,SN,overcast clouds
652,Aden,2020-10-30 01:15:36,12.78,45.04,81.39,69,0,12.39,YE,clear sky
653,Eyemouth,2020-10-30 01:17:39,55.87,-2.09,57.99,94,99,5.99,GB,overcast clouds
654,Gemena,2020-10-30 01:17:39,3.25,19.77,67.89,98,100,0.67,CD,overcast clouds
655,Rovaniemi,2020-10-30 01:17:40,66.5,25.72,30.2,100,90,4.7,FI,fog
656,Bongandanga,2020-10-30 01:17:40,1.5,21.05,68.04,99,100,1.59,CD,overcast clouds
657,Veracruz,2020-10-30 01:17:40,19.33,-96.67,75.99,69,40,26.4,MX,scattered clouds
658,Eyl,2020-10-30 01:15:16,7.98,49.82,79.7,73,88,1.3,SO,overcast clouds
659,Sandpoint,2020-10-30 01:13:43,48.28,-116.55,46.4,70,1,0.81,US,clear sky
660,Hals,2020-10-30 01:17:40,57.0,10.31,43.0,96,100,7.74,DK,overcast clouds
661,Tromso,2020-10-30 01:15:53,69.65,18.96,32.0,93,90,29.97,NO,overcast clouds
662,Palana,2020-10-30 01:17:40,59.12,159.97,33.96,86,91,7.72,RU,overcast clouds
663,Ardahan,2020-10-30 01:17:40,41.11,42.7,45.37,56,0,3.31,TR,clear sky
664,Vysokogornyy,2020-10-30 01:17:40,50.12,139.15,35.83,83,18,2.42,RU,few clouds
665,De-Kastri,2020-10-30 01:17:40,51.47,140.78,39.7,76,30,6.55,RU,scattered clouds
666,Ouahigouya,2020-10-30 01:17:41,13.58,-2.42,78.53,19,4,4.68,BF,clear sky
667,Vieques,2020-10-30 01:17:41,18.43,-65.83,80.6,83,40,6.93,PR,scattered clouds
668,Batagay-Alyta,2020-10-30 01:17:41,67.8,130.41,6.93,94,100,2.28,RU,light snow
669,Ulundi,2020-10-30 01:17:41,-28.34,31.42,67.91,83,98,2.57,ZA,overcast clouds
670,Toora-Khem,2020-10-30 01:17:41,52.47,96.11,18.19,90,0,2.53,RU,clear sky
671,Taltal,2020-10-30 01:17:41,-25.4,-70.48,57.43,71,34,5.1,CL,scattered clouds
672,Hoquiam,2020-10-30 01:17:41,46.98,-123.89,57.0,76,1,4.7,US,clear sky
673,Tarko-Sale,2020-10-30 01:17:41,64.92,77.78,9.05,94,100,8.84,RU,overcast clouds
674,Tiarei,2020-10-30 01:17:42,-17.53,-149.33,84.2,70,40,14.99,PF,scattered clouds
675,Ryotsu,2020-10-30 01:17:42,38.08,138.43,57.2,50,75,14.99,JP,broken clouds
676,La Ronge,2020-10-30 01:17:42,55.1,-105.28,24.76,95,36,8.86,CA,scattered clouds
677,Diamantino,2020-10-30 01:16:49,-14.41,-56.45,73.58,91,50,2.98,BR,moderate rain
678,Murgab,2020-10-30 01:17:42,37.5,61.97,37.4,55,0,4.7,TM,clear sky
679,Joshimath,2020-10-30 01:17:42,30.57,79.57,45.7,33,0,3.2,IN,clear sky
680,Sibolga,2020-10-30 01:16:15,1.74,98.78,81.32,68,18,1.83,ID,few clouds
681,Gwadar,2020-10-30 01:17:42,25.12,62.33,73.72,26,0,9.8,PK,clear sky
682,Elk City,2020-10-30 01:17:42,35.41,-99.4,48.2,57,1,3.36,US,clear sky
683,Itupiranga,2020-10-30 01:17:42,-5.13,-49.33,82.06,67,27,0.27,BR,scattered clouds
